[
  {
    "PDGA_NUMBER": "10001",
    "MEMBER_FULL_NAME": "Emily Chen",
    "MEMBER_CITY": "San Francisco",
    "MEMBER_STATE_PROV": "CA",
    "COUNTRY_ID": "USA",
    "MEMBER_POSTAL_ZIP": "94107",
    "MEMBER_ADDRESS": "123 Main St",
    "MEMBER_ADDRESS_LINE_2": null,
    "MEMBER_LAT": 37.7749,
    "MEMBER_LON": -122.4194,
    "MEMBER_ADDRESS_FORMATTED": "123 Main St, San Francisco, CA 94107, USA"
  },
  {
    "PDGA_NUMBER": "10002",
    "MEMBER_FULL_NAME": "Marcus Lee",
    "MEMBER_CITY": "Boulder",
    "MEMBER_STATE_PROV": "CO",
    "COUNTRY_ID": "USA",
    "MEMBER_POSTAL_ZIP": "80302",
    "MEMBER_ADDRESS": "456 Elm St",
    "MEMBER_ADDRESS_LINE_2": null,
    "MEMBER_LAT": 40.0150,
    "MEMBER_LON": -105.2705,
    "MEMBER_ADDRESS_FORMATTED": "456 Elm St, Boulder, CO 80302, USA"
  },
  {
    "PDGA_NUMBER": "10003",
    "MEMBER_FULL_NAME": "Jade Kim",
    "MEMBER_CITY": "Boston",
    "MEMBER_STATE_PROV": "MA",
    "COUNTRY_ID": "USA",
    "MEMBER_POSTAL_ZIP": "02108",
    "MEMBER_ADDRESS": "789 Pine St",
    "MEMBER_ADDRESS_LINE_2": null,
    "MEMBER_LAT": 42.3601,
    "MEMBER_LON": -71.0589,
    "MEMBER_ADDRESS_FORMATTED": "789 Pine St, Boston, MA 02108, USA"
  },
  {
    "PDGA_NUMBER": "10004",
    "MEMBER_FULL_NAME": "Nina Patel",
    "MEMBER_CITY": "Seattle",
    "MEMBER_STATE_PROV": "WA",
    "COUNTRY_ID": "USA",
    "MEMBER_POSTAL_ZIP": "98101",
    "MEMBER_ADDRESS": "101 Oak Ave",
    "MEMBER_ADDRESS_LINE_2": null,
    "MEMBER_LAT": 47.6062,
    "MEMBER_LON": -122.3321,
    "MEMBER_ADDRESS_FORMATTED": "101 Oak Ave, Seattle, WA 98101, USA"
  },
  {
    "PDGA_NUMBER": "10005",
    "MEMBER_FULL_NAME": "Leo Diaz",
    "MEMBER_CITY": "Houston",
    "MEMBER_STATE_PROV": "TX",
    "COUNTRY_ID": "USA",
    "MEMBER_POSTAL_ZIP": "77002",
    "MEMBER_ADDRESS": "202 Cedar Ln",
    "MEMBER_ADDRESS_LINE_2": null,
    "MEMBER_LAT": 29.7604,
    "MEMBER_LON": -95.3698,
    "MEMBER_ADDRESS_FORMATTED": "202 Cedar Ln, Houston, TX 77002, USA"
  },
  {
    "PDGA_NUMBER": "10006",
    "MEMBER_FULL_NAME": "Sarah Green",
    "MEMBER_CITY": "Orlando",
    "MEMBER_STATE_PROV": "FL",
    "COUNTRY_ID": "USA",
    "MEMBER_POSTAL_ZIP": "32801",
    "MEMBER_ADDRESS": "303 Birch Dr",
    "MEMBER_ADDRESS_LINE_2": null,
    "MEMBER_LAT": 28.5383,
    "MEMBER_LON": -81.3792,
    "MEMBER_ADDRESS_FORMATTED": "303 Birch Dr, Orlando, FL 32801, USA"
  },
  {
    "PDGA_NUMBER": "10007",
    "MEMBER_FULL_NAME": "David Kim",
    "MEMBER_CITY": "Vancouver",
    "MEMBER_STATE_PROV": "BC",
    "COUNTRY_ID": "Canada",
    "MEMBER_POSTAL_ZIP": "V6B 1B4",
    "MEMBER_ADDRESS": "404 Maple Ave",
    "MEMBER_ADDRESS_LINE_2": null,
    "MEMBER_LAT": 49.2827,
    "MEMBER_LON": -123.1207,
    "MEMBER_ADDRESS_FORMATTED": "404 Maple Ave, Vancouver, BC V6B 1B4, Canada"
  },
  {
    "PDGA_NUMBER": "10008",
    "MEMBER_FULL_NAME": "Chris Evans",
    "MEMBER_CITY": "Detroit",
    "MEMBER_STATE_PROV": "MI",
    "COUNTRY_ID": "USA",
    "MEMBER_POSTAL_ZIP": "48201",
    "MEMBER_ADDRESS": "505 Poplar St",
    "MEMBER_ADDRESS_LINE_2": null,
    "MEMBER_LAT": 42.3314,
    "MEMBER_LON": -83.0458,
    "MEMBER_ADDRESS_FORMATTED": "505 Poplar St, Detroit, MI 48201, USA"
  },
  {
    "PDGA_NUMBER": "10009",
    "MEMBER_FULL_NAME": "Maria Rodriguez",
    "MEMBER_CITY": "New York",
    "MEMBER_STATE_PROV": "NY",
    "COUNTRY_ID": "USA",
    "MEMBER_POSTAL_ZIP": "10001",
    "MEMBER_ADDRESS": "606 Broadway",
    "MEMBER_ADDRESS_LINE_2": null,
    "MEMBER_LAT": 40.7128,
    "MEMBER_LON": -74.0060,
    "MEMBER_ADDRESS_FORMATTED": "606 Broadway, New York, NY 10001, USA"
  },
  {
    "PDGA_NUMBER": "10010",
    "MEMBER_FULL_NAME": "Tom Wilson",
    "MEMBER_CITY": "Chicago",
    "MEMBER_STATE_PROV": "IL",
    "COUNTRY_ID": "USA",
    "MEMBER_POSTAL_ZIP": "60601",
    "MEMBER_ADDRESS": "707 Michigan Ave",
    "MEMBER_ADDRESS_LINE_2": null,
    "MEMBER_LAT": 41.8781,
    "MEMBER_LON": -87.6298,
    "MEMBER_ADDRESS_FORMATTED": "707 Michigan Ave, Chicago, IL 60601, USA"
  },
  {
    "PDGA_NUMBER": "10011",
    "MEMBER_FULL_NAME": "Jessica White",
    "MEMBER_CITY": "Philadelphia",
    "MEMBER_STATE_PROV": "PA",
    "COUNTRY_ID": "USA",
    "MEMBER_POSTAL_ZIP": "19106",
    "MEMBER_ADDRESS": "808 Market St",
    "MEMBER_ADDRESS_LINE_2": null,
    "MEMBER_LAT": 39.9526,
    "MEMBER_LON": -75.1652,
    "MEMBER_ADDRESS_FORMATTED": "808 Market St, Philadelphia, PA 19106, USA"
  },
  {
    "PDGA_NUMBER": "10012",
    "MEMBER_FULL_NAME": "Kevin Black",
    "MEMBER_CITY": "Montreal",
    "MEMBER_STATE_PROV": "QC",
    "COUNTRY_ID": "Canada",
    "MEMBER_POSTAL_ZIP": "H3A 0B4",
    "MEMBER_ADDRESS": "909 René-Lévesque Blvd",
    "MEMBER_ADDRESS_LINE_2": null,
    "MEMBER_LAT": 45.5017,
    "MEMBER_LON": -73.5673,
    "MEMBER_ADDRESS_FORMATTED": "909 René-Lévesque Blvd, Montreal, QC H3A 0B4, Canada"
  },
  {
    "PDGA_NUMBER": "10013",
    "MEMBER_FULL_NAME": "Hannah Baker",
    "MEMBER_CITY": "Portland",
    "MEMBER_STATE_PROV": "OR",
    "COUNTRY_ID": "USA",
    "MEMBER_POSTAL_ZIP": "97204",
    "MEMBER_ADDRESS": "111 River Rd",
    "MEMBER_ADDRESS_LINE_2": null,
    "MEMBER_LAT": 45.5152,
    "MEMBER_LON": -122.6784,
    "MEMBER_ADDRESS_FORMATTED": "111 River Rd, Portland, OR 97204, USA"
  },
  {
    "PDGA_NUMBER": "10014",
    "MEMBER_FULL_NAME": "Noah Clark",
    "MEMBER_CITY": "Tucson",
    "MEMBER_STATE_PROV": "AZ",
    "COUNTRY_ID": "USA",
    "MEMBER_POSTAL_ZIP": "85701",
    "MEMBER_ADDRESS": "222 Desert Dr",
    "MEMBER_ADDRESS_LINE_2": null,
    "MEMBER_LAT": 32.2226,
    "MEMBER_LON": -110.9747,
    "MEMBER_ADDRESS_FORMATTED": "222 Desert Dr, Tucson, AZ 85701, USA"
  }
]